[
    {
        "id": "5782f2d448afbbcfcba65be5",
        "name": "Victory MMA",
        "days/hours": "Fridays 10AM-11AM",
        "street": "3666 Midway Dr. San Diego, CA 92110",
        "phone": "(619) 2235581",
        "lat": 32.753313,
        "long": -117.2170256
    },
    {
        "id": "5782f2d448afbbcfcba65be5",
        "name": "Victory MMA",
        "days/hours": "Fridays 10AM-11AM",
        "street": "3666 Midway Dr. San Diego, CA 92110",
        "phone": "(619) 2235581",
        "lat": 32.753313,
        "long": -117.2170256
    },
    {
        "id": "5782f2d4ae49ac48112dbf31",
        "name": "The Boxing Club",
        "days/hours": "Fridays 12PM",
        "street": "8650 Genessee Ave, Ste 206, San Diego, CA 92122",
        "phone": "(858) 622-1903",
        "lat": 32.788816,
        "long": -117.2527125
    },
    {
        "id": "5782f2d4d1f955f2adfe83b5",
        "name": "Gracie Humaita La Mesa",
        "days/hours": "Fridays 6PM",
        "street": "9138 Fletcher Pkwy, La Mesa, CA 91942",
        "phone": "(619) 466-6055",
        "lat": 32.7934301,
        "long": -117.0053266
    },
    {
        "id": "5782f2d49d21f2ee4e02ab4a",
        "name": "Gracie Barra Sorrento Valley",
        "days/hours": "Fridays 6PM - 7PM",
        "street": "5995 Mira Mesa Blvd. , ste H, San Diego, CA 92121",
        "phone": "(858) 228-7367",
        "lat": 32.9004583,
        "long": -117.1895947
    },
    {
        "id": "5782f2d4a2c294573af6f3b4",
        "name": "Del Mar Jiu Jitsu",
        "days/hours": "Saturdays 7AM-9AM",
        "street": "2120 Jimmy Durante Blvd #121, Del Mar, CA 92014",
        "phone": "(858) 531-2576",
        "lat": 32.9702266,
        "long": -117.2670194
    },
    {
        "id": "5782f2d4ed94837fa86771ef",
        "name": "Carlson Gracie Escondido",
        "days/hours": "Saturdays 9AM",
        "street": "1980 E. Valley Pkwy, Escondido,CA 92027",
        "phone": "(760) 500-7710",
        "lat": 33.1375685,
        "long": -117.0546297
    },
    {
        "id": "5782f2d460964de58e676b61",
        "name": "Alliance East Lake",
        "days/hours": "Saturdays 10AM-12PM",
        "street": "821 Kuhn Dr, Ste 110 Chula Vista, CA 91914",
        "phone": "(619) 931-4370",
        "lat": 32.6534714,
        "long": -116.9689103
    },
    {
        "id": "5782f2d49c4281c050a5128b",
        "name": "Odin BJJ",
        "days/hours": "Saturdays 10AM-12PM",
        "street": "700 seacosti Dr, Ste #105, Imperial Beach, CA 91932",
        "phone": "(619) 919-6246",
        "lat": 32.5836013,
        "long": -117.120545
    },
    {
        "id": "5782f2d4ebf437c7227951fc",
        "name": "Infinite BJJ",
        "days/hours": "Saturdays 10AM - 12PM",
        "street": "9225 Carlton Hills Blvd, Ste 24, Santee, CA 92071",
        "phone": "(619) 334-2465",
        "lat": 32.8451561,
        "long": -116.9999987
    },
    {
        "id": "5782f2d430cc0c94db0c6777",
        "name": "Atos HQ",
        "days/hours": "Saturdays 11AM - 1PM",
        "street": "4810 Mercury St., San Diego, CA 92111",
        "phone": "(858) 292-5040",
        "lat": 32.8294103,
        "long": -117.1513594
    },
    {
        "id": "5782f2d4ab544201fee6a226",
        "name": "Honu BJJ IB",
        "days/hours": "Saturdays 11AM - 1PM",
        "street": "631 9th St, Imperial Beach, CA 91932",
        "phone": "(619) 365-4668",
        "lat": 32.5848035,
        "long": -117.1160531
    },
    {
        "id": "5782f2d46ede25cc914d41b9",
        "name": "Barum BJJ",
        "days/hours": "Saturdays 11:30AM -1:30PM",
        "street": "464903 Morena Blvd #1202, San Diego, CA 92117",
        "phone": "(820) 554-3745",
        "lat": 32.8300215,
        "long": -117.2323497
    },
    {
        "id": "5782f2d4c9d3dbf15c801201",
        "name": "The Arena",
        "days/hours": "Saturdays 12PM - 2PM",
        "street": "3350 Sports Arena Blvd., San Diego, CA 92110",
        "phone": "(619) 222-5554",
        "lat": 32.7540531,
        "long": -117.2113927
    },
    {
        "id": "5782f2d4afe60258cf909bc7",
        "name": "Gracie Humaita South Bay",
        "days/hours": "Saturdays 12PM",
        "street": "340 W. 26th St. Ste. G/H, National Ciy CA, 91950",
        "phone": "(619) 474-0944",
        "lat": 32.6583784,
        "long": -117.1068784
    },
    {
        "id": "5782f2d43a7e7aa091986d6b",
        "name": "Honu BJJ",
        "days/hours": "Sundays 8A - 10 AM",
        "street": "4310 Orange Ave., San Diego, CA 92102",
        "phone": "(619) 365-4668",
        "lat": 32.7536605,
        "long": -117.1038907
    },
    {
        "id": "5782f2d46a6bd8b379dd3caf",
        "name": "The Stronghold Eastlake",
        "days/hours": "Sundays 9AM - 10:30AM",
        "street": "861 Harold Pl., Ste 304, Chula Vista, CA 91914",
        "phone": "(619) 674-4677",
        "lat": 32.6533367,
        "long": -116.9595373
    },
    {
        "id": "5782f2d4f52ff8d7b56e2e9a",
        "name": "Ocean Beach BJJ",
        "days/hours": "Sundays 9AM - 11AM",
        "street": "2175 Abbott St., San Diego, CA 92107",
        "phone": "(619) 800-0341",
        "lat": 32.7526402,
        "long": -117.2507894
    },
    {
        "id": "5782f2d490d2e7e739f1fbb8",
        "name": "Apex Jiu Jitsu",
        "days/hours": "Sundays 10AM - 12PM",
        "street": "4248 Bonita Rd., Ste B, Bonita, CA 91902",
        "phone": "(619) 259-2062",
        "lat": 32.6603176,
        "long": -117.037556
    },
    {
        "id": "5782f2d4a409c98c476ac4f5",
        "name": "Alliance SD",
        "days/hours": "Sundays 10AM - 12PM",
        "street": "8990 Miramar Rd., Ste 225, San Diego, CA 92126",
        "phone": "(858) 549-1226",
        "lat": 32.8953922,
        "long": -117.1345577
    },
    {
        "id": "5782f2d4509f6423d345f27b",
        "name": "Barum BJJ",
        "days/hours": "Sundays 10AM - 12PM",
        "street": "4903 Morena Blvd, San Diego, CA 92117",
        "phone": "(858) 361-4989",
        "lat": 32.8300215,
        "long": -117.2323497
    },
    {
        "id": "5782f2d4f5b52ed3d11cc958",
        "name": "Infinity BJJ",
        "days/hours": "Sundays 10AM - 12PM",
        "street": "9225 Carlton Hills Blvd, Ste 24, Santee, CA 92071",
        "phone": "(619) 334-2465",
        "lat": 32.8451561,
        "long": -116.9999987
    },
    {
        "id": "5782f2d4a948d4a51511ecc7",
        "name": "99 BJJ HQ",
        "days/hours": "Sundays 10AM - 12PM",
        "street": "4425 Convoy St, Ste 210, San Diego, CA 92111",
        "phone": "(858) 987-0257",
        "lat": 32.8208605,
        "long": -117.156677
    },
    {
        "id": "5782f2d4b1b2ec77d9479006",
        "name": "The Boxing Club",
        "days/hours": "Sundays 11AM",
        "street": "8650 Genessee Ave, Ste 206, San Diego, CA 92122",
        "phone": "(858) 622-1903",
        "lat": 32.8064847,
        "long": -117.1840162
    },
    {
        "id": "5782f2d45e5d1ac82738f5bc",
        "name": "10th Planet Oceanside",
        "days/hours": "Sundays 12PM - 4PM",
        "street": "1006 Misson Ave, Oceanside, CA 92054",
        "phone": "(760) 587-5769",
        "lat": 33.1992938,
        "long": -117.3781519
    },
    {
        "id": "5782f2d45d650dda2f23dc03",
        "name": "10th Planet Spring Valley",
        "days/hours": "Sundays 1PM - 3PM",
        "street": "2705 Via Orange Way, Spring Valley, CA 91978",
        "phone": "(619) 303-9595",
        "lat": 32.7301612,
        "long": -116.9686333
    },
    {
        "id": "5782f2d428756a1446253369",
        "name": "North Park BJJ",
        "days/hours": "Sundays 3PM - 5PM",
        "street": "3363 El Cajon Blvd, San Diego, CA 92104",
        "phone": "(619) 630-7116",
        "lat": 32.7549573,
        "long": -117.1229525
    },
    {
        "id": "5782f2d412f439084c7f055e",
        "name": "P5 Academy",
        "days/hours": "Sundays 3PM - 5PM",
        "street": "1430 B Morena Blvd, San Diego, CA 92110",
        "phone": "(619) 302-5230",
        "lat": 32.7462023,
        "long": -117.1997713
    },
    {
        "id": "5782f2d43374c341433fcdb9",
        "name": "New Breed Fitness",
        "days/hours": "Sundays 5PM",
        "street": "6650 Flanders Dr, Ste G, San Diego, CA 92121",
        "phone": "(858) 243-9511",
        "lat": 32.9057557,
        "long": -117.178615
    },
    {
        "id": "5782f2d4ae49ac48112dbf31",
        "name": "The Boxing Club",
        "days/hours": "Fridays 12PM",
        "street": "8650 Genessee Ave, Ste 206, San Diego, CA 92122",
        "phone": "(858) 622-1903",
        "lat": 32.788816,
        "long": -117.2527125
    },
    {
        "id": "5782f2d4d1f955f2adfe83b5",
        "name": "Gracie Humaita La Mesa",
        "days/hours": "Fridays 6PM",
        "street": "9138 Fletcher Pkwy, La Mesa, CA 91942",
        "phone": "(619) 466-6055",
        "lat": 32.7934301,
        "long": -117.0053266
    },
    {
        "id": "5782f2d49d21f2ee4e02ab4a",
        "name": "Gracie Barra Sorrento Valley",
        "days/hours": "Fridays 6PM - 7PM",
        "street": "5995 Mira Mesa Blvd. , ste H, San Diego, CA 92121",
        "phone": "(858) 228-7367",
        "lat": 32.9004583,
        "long": -117.1895947
    },
    {
        "id": "5782f2d4a2c294573af6f3b4",
        "name": "Del Mar Jiu Jitsu",
        "days/hours": "Saturdays 7AM-9AM",
        "street": "2120 Jimmy Durante Blvd #121, Del Mar, CA 92014",
        "phone": "(858) 531-2576",
        "lat": 32.9702266,
        "long": -117.2670194
    },
    {
        "id": "5782f2d4ed94837fa86771ef",
        "name": "Carlson Gracie Escondido",
        "days/hours": "Saturdays 9AM",
        "street": "1980 E. Valley Pkwy, Escondido,CA 92027",
        "phone": "(760) 500-7710",
        "lat": 33.1375685,
        "long": -117.0546297
    },
    {
        "id": "5782f2d460964de58e676b61",
        "name": "Alliance East Lake",
        "days/hours": "Saturdays 10AM-12PM",
        "street": "821 Kuhn Dr, Ste 110 Chula Vista, CA 91914",
        "phone": "(619) 931-4370",
        "lat": 32.6534714,
        "long": -116.9689103
    },
    {
        "id": "5782f2d49c4281c050a5128b",
        "name": "Odin BJJ",
        "days/hours": "Saturdays 10AM-12PM",
        "street": "700 seacosti Dr, Ste #105, Imperial Beach, CA 91932",
        "phone": "(619) 919-6246",
        "lat": 32.5836013,
        "long": -117.120545
    },
    {
        "id": "5782f2d4ebf437c7227951fc",
        "name": "Infinite BJJ",
        "days/hours": "Saturdays 10AM - 12PM",
        "street": "9225 Carlton Hills Blvd, Ste 24, Santee, CA 92071",
        "phone": "(619) 334-2465",
        "lat": 32.8451561,
        "long": -116.9999987
    },
    {
        "id": "5782f2d430cc0c94db0c6777",
        "name": "Atos HQ",
        "days/hours": "Saturdays 11AM - 1PM",
        "street": "4810 Mercury St., San Diego, CA 92111",
        "phone": "(858) 292-5040",
        "lat": 32.8294103,
        "long": -117.1513594
    },
    {
        "id": "5782f2d4ab544201fee6a226",
        "name": "Honu BJJ IB",
        "days/hours": "Saturdays 11AM - 1PM",
        "street": "631 9th St, Imperial Beach, CA 91932",
        "phone": "(619) 365-4668",
        "lat": 32.5848035,
        "long": -117.1160531
    },
    {
        "id": "5782f2d46ede25cc914d41b9",
        "name": "Barum BJJ",
        "days/hours": "Saturdays 11:30AM -1:30PM",
        "street": "464903 Morena Blvd #1202, San Diego, CA 92117",
        "phone": "(820) 554-3745",
        "lat": 32.8300215,
        "long": -117.2323497
    },
    {
        "id": "5782f2d4c9d3dbf15c801201",
        "name": "The Arena",
        "days/hours": "Saturdays 12PM - 2PM",
        "street": "3350 Sports Arena Blvd., San Diego, CA 92110",
        "phone": "(619) 222-5554",
        "lat": 32.7540531,
        "long": -117.2113927
    },
    {
        "id": "5782f2d4afe60258cf909bc7",
        "name": "Gracie Humaita South Bay",
        "days/hours": "Saturdays 12PM",
        "street": "340 W. 26th St. Ste. G/H, National Ciy CA, 91950",
        "phone": "(619) 474-0944",
        "lat": 32.6583784,
        "long": -117.1068784
    },
    {
        "id": "5782f2d43a7e7aa091986d6b",
        "name": "Honu BJJ",
        "days/hours": "Sundays 8A - 10 AM",
        "street": "4310 Orange Ave., San Diego, CA 92102",
        "phone": "(619) 365-4668",
        "lat": 32.7536605,
        "long": -117.1038907
    },
    {
        "id": "5782f2d46a6bd8b379dd3caf",
        "name": "The Stronghold Eastlake",
        "days/hours": "Sundays 9AM - 10:30AM",
        "street": "861 Harold Pl., Ste 304, Chula Vista, CA 91914",
        "phone": "(619) 674-4677",
        "lat": 32.6533367,
        "long": -116.9595373
    },
    {
        "id": "5782f2d4f52ff8d7b56e2e9a",
        "name": "Ocean Beach BJJ",
        "days/hours": "Sundays 9AM - 11AM",
        "street": "2175 Abbott St., San Diego, CA 92107",
        "phone": "(619) 800-0341",
        "lat": 32.7526402,
        "long": -117.2507894
    },
    {
        "id": "5782f2d490d2e7e739f1fbb8",
        "name": "Apex Jiu Jitsu",
        "days/hours": "Sundays 10AM - 12PM",
        "street": "4248 Bonita Rd., Ste B, Bonita, CA 91902",
        "phone": "(619) 259-2062",
        "lat": 32.6603176,
        "long": -117.037556
    },
    {
        "id": "5782f2d4a409c98c476ac4f5",
        "name": "Alliance SD",
        "days/hours": "Sundays 10AM - 12PM",
        "street": "8990 Miramar Rd., Ste 225, San Diego, CA 92126",
        "phone": "(858) 549-1226",
        "lat": 32.8953922,
        "long": -117.1345577
    },
    {
        "id": "5782f2d4509f6423d345f27b",
        "name": "Barum BJJ",
        "days/hours": "Sundays 10AM - 12PM",
        "street": "4903 Morena Blvd, San Diego, CA 92117",
        "phone": "(858) 361-4989",
        "lat": 32.8300215,
        "long": -117.2323497
    },
    {
        "id": "5782f2d4f5b52ed3d11cc958",
        "name": "Infinity BJJ",
        "days/hours": "Sundays 10AM - 12PM",
        "street": "9225 Carlton Hills Blvd, Ste 24, Santee, CA 92071",
        "phone": "(619) 334-2465",
        "lat": 32.8451561,
        "long": -116.9999987
    },
    {
        "id": "5782f2d4a948d4a51511ecc7",
        "name": "99 BJJ HQ",
        "days/hours": "Sundays 10AM - 12PM",
        "street": "4425 Convoy St, Ste 210, San Diego, CA 92111",
        "phone": "(858) 987-0257",
        "lat": 32.8208605,
        "long": -117.156677
    },
    {
        "id": "5782f2d4b1b2ec77d9479006",
        "name": "The Boxing Club",
        "days/hours": "Sundays 11AM",
        "street": "8650 Genessee Ave, Ste 206, San Diego, CA 92122",
        "phone": "(858) 622-1903",
        "lat": 32.8064847,
        "long": -117.1840162
    },
    {
        "id": "5782f2d45e5d1ac82738f5bc",
        "name": "10th Planet Oceanside",
        "days/hours": "Sundays 12PM - 4PM",
        "street": "1006 Misson Ave, Oceanside, CA 92054",
        "phone": "(760) 587-5769",
        "lat": 33.1992938,
        "long": -117.3781519
    },
    {
        "id": "5782f2d45d650dda2f23dc03",
        "name": "10th Planet Spring Valley",
        "days/hours": "Sundays 1PM - 3PM",
        "street": "2705 Via Orange Way, Spring Valley, CA 91978",
        "phone": "(619) 303-9595",
        "lat": 32.7301612,
        "long": -116.9686333
    },
    {
        "id": "5782f2d428756a1446253369",
        "name": "North Park BJJ",
        "days/hours": "Sundays 3PM - 5PM",
        "street": "3363 El Cajon Blvd, San Diego, CA 92104",
        "phone": "(619) 630-7116",
        "lat": 32.7549573,
        "long": -117.1229525
    },
    {
        "id": "5782f2d412f439084c7f055e",
        "name": "P5 Academy",
        "days/hours": "Sundays 3PM - 5PM",
        "street": "1430 B Morena Blvd, San Diego, CA 92110",
        "phone": "(619) 302-5230",
        "lat": 32.7462023,
        "long": -117.1997713
    },
    {
        "id": "5782f2d43374c341433fcdb9",
        "name": "New Breed Fitness",
        "days/hours": "Sundays 5PM",
        "street": "6650 Flanders Dr, Ste G, San Diego, CA 92121",
        "phone": "(858) 243-9511",
        "lat": 32.9057557,
        "long": -117.178615
    }
]
